Latitude,Longitude,Time,Date,Number of Sats,GPS Speed (Kn),GPS True Heading,GPS Magnetic Variation,HDOP,C Magnetic Heading,C True Heading,Pitch Angle,Roll Angle,C Inside Temp (c),DFS Depth (m),DTB Height (m),Total Water Column (m),Batt Percent,Power Watts,Watt-Hours,Batt Volts,Batt Ampers,Batt State,Time to Empty,Current Step,Dist To Next (m),Next Speed (kn),Vehicle Speed (kn),Motor Speed CMD,Next Heading,Next Long,Next Lat,Next Depth (m),Depth Goal (m),Vehicle State,Error State,Distance to Track (m),Fin Pitch R,Fin Pitch L,Pitch Goal,Fin Yaw T,Fin Yaw B,Yaw Goal,Fin Roll,DVL-Depth (m),DVL -Altitude (m),DVL -Water Column (m),DVL-FixType,DVL-FixQuality,DVL-Temperature,Conductivity (mmhos/cm),Temperature (c),Salinity (ppt),Sound Speed (m/s),Date m/d/y   ,Time hh:mm:ss,Temp C,SpCond mS/cm,Sal ppt,Depth feet,pH,pH mV,Turbid+ NTU,Chl ug/L,BGA-PC cells/mL,ODOsat %,ODO mg/L,Battery volts,ROSEM Command Type
25.88142515,-80.14646132,58:45.7,10/21/21,10,1.216,37.18,-7.117706431,0.89,52.7,48.42,1.91,-0.01,36.6,0.01,3.34,3.35,92,25,510.8,16.2,-1.5,D,1339.2,0,292.411,1,1.11,154,42.97,-80.14446913,25.88334941,0,0,1,N,0.000193,68,68,11,105,105,42.95941,0,9999.99,3.35,3.477,2,9,29.9,0,29.89999962,46.6,1557.38738,10/21/21,10:34:58,26.7,68.37,46.6,1.192,7.95,-56.5,-4.8,1.6,7648,93.3,5.76,12.8,
25.88142946,-80.14645852,58:46.7,10/21/21,10,1.017,37.18,-7.117706431,0.89,52.2,47.92,0.66,-0.72,36.6,0.0,3.23,3.23,92,25,510.8,16.2,-1.5,D,1339.2,0,291.869,1,1.08,154,42.99,-80.14446913,25.88334941,0,0,1,N,0.1202386,61,61,11,111,111,43.82194,0,9999.99,3.24,3.367,2,9,29.9,0,29.89999962,46.61,1557.39763,10/21/21,10:34:59,26.69,68.37,46.61,1.221,7.95,-56.5,-2.4,0.0,-3366,93.4,5.76,12.9,
25.88143354,-80.14645389,58:47.7,10/21/21,10,1.204,37.18,-7.117706431,0.89,48.9,44.63,1.87,-1.68,36.6,0.0,3.22,3.22,92,25,510.8,16.2,-1.5,D,1339.2,0,291.222,1,1.08,154,42.99,-80.14446913,25.88334941,0,0,1,N,0.0843,68,68,11,123,123,43.56429,0,9999.99,3.24,3.367,2,9,29.9,0,29.89999962,37.25,1547.61167,10/21/21,10:35:00,26.7,56.14,37.25,1.263,7.95,-56.5,-5.7,-6.8,3456,93.4,6.07,12.7,
25.88143778,-80.14645071,58:48.7,10/21/21,10,1.157,37.18,-7.117706431,0.89,45.1,40.82,1.57,-8.5,36.5,0.0,3.29,3.3,92,25,510.8,16.2,-1.5,D,1339.2,0,290.66,1,1.04,154,43.0,-80.14446913,25.88334941,0,0,1,N,0.1717062,69,69,11,144,144,44.19031,0,9999.99,3.3,3.427,2,9,29.9,0,29.89999962,43.81,1554.46767,10/21/21,10:35:01,26.7,64.77,43.81,1.146,7.95,-56.5,-4.1,-2.4,26124,93.4,5.85,12.9,
25.88144203,-80.14644639,58:49.7,10/21/21,10,1.199,37.18,-7.117706431,0.89,50.2,45.92,0.42,-4.86,36.6,0.01,3.23,3.24,92,25,510.8,16.2,-1.5,D,1344.2,0,290.019,1,1.11,154,43.0,-80.14446913,25.88334941,0,0,1,N,0.1876167,55,55,11,113,113,44.3041,0,9999.99,3.22,3.347,2,9,29.8,0,29.79999924,46.6,1557.18872,10/21/21,10:35:02,26.69,68.36,46.6,1.21,7.96,-56.6,-4.5,-1.5,-3582,93.4,5.76,12.9,
25.88144654,-80.14644533,58:50.7,10/21/21,10,1.028,18.63,-7.117706431,0.89,51.5,47.22,-1.02,7.05,36.6,0.01,3.33,3.34,92,25,510.8,16.2,-1.5,D,1344.2,0,289.581,1,1.02,154,43.06,-80.14446913,25.88334941,0,0,1,N,0.4402379,55,55,11,126,126,46.11054,0,9999.99,3.35,3.477,2,9,29.8,0,29.79999924,45.37,1555.90081,10/21/21,10:35:03,26.68,66.78,45.37,1.359,7.95,-56.5,-5.0,-1.1,4984,93.5,5.81,13.0,
25.88145583,-80.14642917,58:54.8,10/21/21,10,1.154,18.63,-7.117706431,0.89,49.5,45.23,1.32,-5.8,36.6,0.0,3.3,3.3,92,25,510.7,16.2,-1.5,D,1370.2,0,287.716,1,1.01,154,42.97,-80.14446913,25.88334941,0,0,1,N,0.00717,65,65,11,118,118,43.01187,0,9999.99,3.29,3.417,2,9,29.8,0,29.79999924,46.4,1556.97862,10/21/21,10:35:07,26.66,68.1,46.4,1.121,7.95,-56.5,-4.2,-0.7,-249,93.4,5.77,12.9,
25.88146746,-80.14641866,58:57.8,10/21/21,10,1.012,18.63,-7.117706431,0.89,54.2,49.91,1.81,-2.85,36.6,0.0,3.32,3.32,92,25,510.7,16.2,-1.5,D,1339.8,0,286.06,1,1.06,154,42.98,-80.14446913,25.88334941,0,0,1,N,0.0847,61,61,11,100,100,43.5666,0,9999.99,3.32,3.447,2,9,29.8,0,29.79999924,46.59,1557.17809,10/21/21,10:35:10,26.68,68.34,46.59,1.177,7.95,-56.5,-4.5,19.0,57885,93.5,5.77,12.9,
25.88147107,-80.1464169,58:58.8,10/21/21,10,0.786,18.63,-7.117706431,0.89,49.8,45.53,0.13,2.52,36.7,0.0,3.29,3.29,92,25,510.7,16.2,-1.5,D,1339.8,0,285.646,1,1.04,154,43.01,-80.14446913,25.88334941,0,0,1,N,0.2216065,58,58,11,123,123,44.54709,0,9999.99,3.3,3.427,2,9,29.8,0,29.79999924,37.44,1547.60472,10/21/21,10:35:12,26.68,56.4,37.44,1.293,7.95,-56.5,-5.3,-1.5,283,93.6,6.08,12.8,
25.88147267,-80.14641367,58:59.8,10/21/21,10,1.173,18.63,-7.117706431,0.89,54.6,50.3,-0.96,1.8,36.7,0.01,3.25,3.25,92,24,510.7,16.2,-1.4,D,1418.4,0,285.273,1,1.04,154,43.01,-80.14446913,25.88334941,0,0,1,N,0.2257314,51,51,11,104,104,44.57657,0,9999.99,3.27,3.397,2,9,29.8,0,29.79999924,37.44,1547.60472,10/21/21,10:35:12,26.68,56.4,37.44,1.293,7.95,-56.5,-5.3,-1.5,283,93.6,6.08,12.8,
25.88147623,-80.14641006,59:00.8,10/21/21,10,1.173,18.63,-7.117706431,0.89,47.0,42.73,2.01,-5.72,36.6,0.01,3.29,3.3,92,24,510.7,16.2,-1.4,D,1418.4,0,284.759,1,1.04,154,42.99,-80.14446913,25.88334941,0,0,1,N,0.1101411,70,70,11,133,133,43.74899,0,9999.99,3.29,3.417,2,9,29.8,0,29.79999924,16.75,1526.03918,10/21/21,10:35:13,26.68,27.36,16.75,1.173,7.96,-56.6,-4.5,-3.9,-6422,93.6,6.83,13.0,
25.88148033,-80.14640833,59:01.8,10/21/21,10,1.125,18.63,-7.117706431,0.89,49.7,45.43,-1.45,-4.51,36.7,0.01,3.28,3.3,92,24,510.7,16.2,-1.4,D,1418.4,0,284.311,1,1.03,154,42.98,-80.14446913,25.88334941,0,0,1,N,0.0673,48,48,11,119,119,43.44237,0,9999.99,3.28,3.407,2,9,29.8,0,29.79999924,46.59,1557.17823,10/21/21,10:35:14,26.66,68.35,46.59,1.339,7.95,-56.5,-4.7,-6.3,-1579,93.5,5.77,12.9,
25.88148383,-80.14640567,59:02.8,10/21/21,10,0.868,18.63,-7.117706431,0.89,48.8,44.53,2.34,-2.21,36.6,0.01,3.21,3.22,92,24,510.7,16.2,-1.4,D,1418.4,0,283.783,1,1.05,154,43.02,-80.14446913,25.88334941,0,0,1,N,0.2688435,71,71,11,128,128,44.8849,0,9999.99,3.22,3.347,2,9,29.8,0,29.79999924,46.58,1557.16838,10/21/21,10:35:16,26.66,68.33,46.58,1.16,7.95,-56.4,-5.2,0.9,2352,93.6,5.78,12.8,
25.88148817,-80.14640217,59:03.8,10/21/21,10,1.28,18.63,-7.117706431,0.89,55.1,50.8,-0.86,0.71,36.6,0.01,3.27,3.28,92,25,510.7,16.2,-1.5,D,1344.8,0,283.332,1,1.01,154,43.04,-80.14446913,25.88334941,0,0,1,N,0.3639879,52,52,11,106,106,45.56522,0,9999.99,3.27,3.397,2,9,29.8,0,29.79999924,46.58,1557.16838,10/21/21,10:35:16,26.66,68.33,46.58,1.16,7.95,-56.4,-5.2,0.9,2352,93.6,5.78,12.8,
25.88149138,-80.14639819,59:04.8,10/21/21,10,1.28,18.63,-7.117706431,0.89,52.9,48.61,1.53,1.56,36.6,0.0,3.26,3.26,92,25,510.7,16.2,-1.5,D,1344.8,0,282.717,1,1.08,154,43.05,-80.14446913,25.88334941,0,0,1,N,0.3981679,65,65,11,110,110,45.80951,0,9999.99,3.28,3.407,2,9,29.8,0,29.79999924,46.57,1557.15673,10/21/21,10:35:17,26.66,68.32,46.57,1.326,7.95,-56.5,-5.8,-6.0,-1943,93.6,5.77,13.0,
25.88149467,-80.14639417,59:05.8,10/21/21,10,1.132,18.63,-7.117706431,0.89,54.4,50.11,-1.5,-0.82,36.7,0.0,3.27,3.27,92,25,510.7,16.2,-1.5,D,1344.8,0,282.23,1,1.04,154,43.06,-80.14446913,25.88334941,0,0,1,N,0.4515012,48,48,11,111,111,46.19038,0,9999.99,3.28,3.407,2,9,29.7,0,29.70000076,34.26,1544.07468,10/21/21,10:35:19,26.69,52.13,34.26,1.324,7.95,-56.5,-3.6,-3.5,5377,93.6,6.19,13.0,
25.881498,-80.14639083,59:06.8,10/21/21,10,0.906,18.63,-7.117706431,0.89,47.5,43.23,3.88,-8.1,36.7,0.0,3.25,3.25,92,25,510.7,16.2,-1.5,D,1344.8,0,281.61,1,1.12,154,43.03,-80.14446913,25.88334941,0,0,1,N,0.3115257,80,80,11,135,135,45.19013,0,9999.99,3.25,3.377,2,9,29.7,0,29.70000076,34.26,1544.07468,10/21/21,10:35:19,26.69,52.13,34.26,1.324,7.95,-56.5,-3.6,-3.5,5377,93.6,6.19,13.0,
25.881502,-80.14638767,59:07.8,10/21/21,10,1.159,18.63,-7.117706431,0.89,55.3,51.0,-0.36,-1.22,36.7,0.0,3.25,3.25,92,25,510.7,16.2,-1.5,D,1379.8,0,281.123,1,1.05,154,43.03,-80.14446913,25.88334941,0,0,1,N,0.3338038,55,55,11,104,104,45.3493,0,9999.99,3.26,3.387,2,9,29.7,0,29.70000076,46.56,1556.94674,10/21/21,10:35:20,26.68,68.31,46.56,1.25,7.95,-56.4,-4.3,-6.9,-2179,93.6,5.78,12.7,
25.88150547,-80.14638382,59:08.8,10/21/21,10,1.159,18.63,-7.117706431,0.89,54.3,50.01,1.04,1.02,36.7,0.0,3.18,3.18,92,25,510.6,16.2,-1.5,D,1363.7,0,280.591,1,1.09,154,43.05,-80.14446913,25.88334941,0,0,1,N,0.4112336,61,61,11,112,112,45.90272,0,9999.99,3.19,3.317,2,9,29.7,0,29.70000076,46.44,1556.82112,10/21/21,10:35:22,26.68,68.16,46.44,1.156,7.95,-56.4,-4.5,-2.9,-3886,93.4,5.77,12.9,
25.88150862,-80.14638039,59:09.8,10/21/21,10,1.097,18.63,-7.117706431,0.89,51.0,46.72,-0.13,-2.85,36.6,0.0,3.26,3.26,92,25,510.6,16.2,-1.5,D,1363.7,0,280.101,1,1.05,154,43.05,-80.14446913,25.88334941,0,0,1,N,0.396465,56,56,11,123,123,45.79713,0,9999.99,3.28,3.407,2,9,29.7,0,29.70000076,46.44,1556.82112,10/21/21,10:35:22,26.68,68.16,46.44,1.156,7.95,-56.4,-4.5,-2.9,-3886,93.4,5.77,12.9,
25.8815135,-80.14637517,59:10.8,10/21/21,10,1.02,18.63,-7.117706431,0.89,56.3,51.99,2.72,-4.07,36.6,0.0,3.23,3.23,92,25,510.6,16.2,-1.5,D,1363.7,0,279.455,1,1.13,154,43.0,-80.14446913,25.88334941,0,0,1,N,0.1717958,73,73,11,96,96,44.19004,0,9999.99,3.22,3.347,2,9,29.7,0,29.70000076,25.28,1534.70179,10/21/21,10:35:23,26.69,39.72,25.28,1.096,7.95,-56.5,-4.9,-4.5,-2146,93.4,6.5,12.9,
25.88152321,-80.14636618,59:13.8,10/21/21,10,1.203,18.63,-7.117706431,0.89,55.1,50.8,-1.56,0.26,36.6,0.01,3.32,3.33,92,25,510.6,16.2,-1.5,D,1379.6,0,277.945,1,1.0,153,43.06,-80.14446913,25.88334941,0,0,1,N,0.5287687,45,45,11,114,114,46.31515,0,9999.99,3.32,3.447,2,9,29.7,0,29.70000076,46.55,1556.93659,10/21/21,10:35:26,26.67,68.29,46.55,1.307,7.95,-56.4,-4.8,-1.5,26255,93.5,5.77,12.8,
25.8815279,-80.14636362,59:14.8,10/21/21,10,0.8,18.63,-7.117706431,0.89,51.5,47.22,4.01,-3.07,36.6,0.01,3.19,3.2,92,25,510.6,16.2,-1.5,D,1379.6,0,277.389,1,1.1,153,43.1,-80.14446913,25.88334941,0,0,1,N,0.3734871,81,81,11,128,128,47.53097,0,9999.99,3.19,3.317,2,9,29.7,0,29.70000076,46.56,1556.94766,10/21/21,10:35:28,26.66,68.31,46.56,1.241,7.95,-56.4,-3.8,-0.9,-6991,93.5,5.77,12.8,
25.88153181,-80.14635955,59:15.9,10/21/21,10,1.371,18.63,-7.117706431,0.89,55.6,51.3,-2.54,-1.49,36.6,0.01,3.39,3.41,92,25,510.6,16.2,-1.5,D,1378.6,0,276.794,1,1.01,153,43.1,-80.14446913,25.88334941,0,0,1,N,0.6040643,43,43,11,112,112,47.51825,0,9999.99,3.39,3.517,2,9,29.7,0,29.70000076,46.56,1556.94766,10/21/21,10:35:28,26.66,68.31,46.56,1.241,7.95,-56.4,-3.8,-0.9,-6991,93.5,5.77,12.8,
25.88154106,-80.14635381,59:17.9,10/21/21,10,0.995,21.9,-7.117706431,0.89,52.9,48.61,1.78,-5.94,36.6,0.01,3.35,3.35,92,25,510.6,16.2,-1.5,D,1378.6,0,275.651,1,1.05,153,43.16,-80.14446913,25.88334941,0,0,1,N,0.8159113,68,68,11,131,131,49.50369,0,9999.99,3.35,3.477,2,9,29.7,0,29.70000076,46.57,1556.95772,10/21/21,10:35:31,26.65,68.32,46.57,1.208,7.95,-56.2,-5.4,-1.6,-597,93.5,5.77,12.9,
25.88154577,-80.14635137,59:18.9,10/21/21,10,1.091,21.9,-7.117706431,0.89,48.3,44.03,1.37,-0.87,36.6,0.0,3.29,3.3,92,25,510.6,16.2,-1.5,D,1378.6,0,275.102,1,1.04,153,43.19,-80.14446913,25.88334941,0,0,1,N,0.8756226,65,65,11,154,154,50.70616,0,9999.99,3.31,3.437,2,9,29.7,0,29.70000076,46.57,1556.95772,10/21/21,10:35:31,26.65,68.32,46.57,1.208,7.95,-56.2,-5.4,-1.6,-597,93.5,5.77,12.9,
25.88154963,-80.14634836,59:19.9,10/21/21,10,1.103,21.9,-7.117706431,0.89,58.9,54.56,2.37,-1.98,36.6,0.0,3.34,3.35,92,25,510.6,16.2,-1.5,D,1371.5,0,274.582,1,1.03,153,43.21,-80.14446913,25.88334941,0,0,1,N,1.052563,68,68,11,114,114,51.29336,0,9999.99,3.35,3.477,2,9,29.7,0,29.70000076,46.53,1556.91529,10/21/21,10:35:32,26.68,68.27,46.53,1.13,7.95,-56.3,-4.4,-8.6,1256,93.5,5.77,12.8,
25.88155443,-80.14634639,59:20.9,10/21/21,10,1.096,21.9,-7.117706431,0.89,49.0,44.73,0.88,0.31,36.6,0.0,3.33,3.34,92,25,510.6,16.2,-1.5,D,1371.5,0,274.059,1,1.02,153,43.26,-80.14446913,25.88334941,0,0,1,N,1.121813,67,67,11,164,164,52.73921,0,9999.99,3.36,3.487,2,9,29.7,0,29.70000076,30.34,1539.98062,10/21/21,10:35:34,26.68,46.78,30.34,1.147,7.95,-56.1,-4.6,-2.3,8842,93.5,6.32,13.1,
25.88155884,-80.14634295,59:21.9,10/21/21,10,1.179,26.63,-7.117706431,0.89,56.1,51.79,2.67,-9.1,36.6,0.0,3.37,3.37,92,25,510.6,16.2,-1.5,D,1371.5,0,273.465,1,1.05,153,43.27,-80.14446913,25.88334941,0,0,1,N,1.302602,66,66,11,126,126,53.41337,0,9999.99,3.37,3.497,2,9,29.7,0,29.70000076,30.34,1539.98062,10/21/21,10:35:34,26.68,46.78,30.34,1.147,7.95,-56.1,-4.6,-2.3,8842,93.5,6.32,13.1,
25.88156252,-80.14633976,59:22.9,10/21/21,10,1.085,26.63,-7.117706431,0.89,51.2,46.92,0.27,-0.57,36.6,0.0,3.32,3.32,92,25,510.6,16.2,-1.5,D,1371.5,0,272.949,1,1.0,153,43.28,-80.14446913,25.88334941,0,0,1,N,1.409496,59,59,11,154,154,53.64882,0,9999.99,3.35,3.477,2,9,29.7,0,29.70000076,46.53,1556.91508,10/21/21,10:35:35,26.68,68.27,46.53,1.297,7.95,-56.2,-5.4,-0.5,2483,93.5,5.77,12.9,
25.88157068,-80.14633285,59:24.9,10/21/21,10,1.201,26.63,-7.117706431,0.89,60.7,56.33,-2.8,4.81,36.6,0.01,3.29,3.3,92,24,510.5,16.2,-1.5,D,1391.1,0,271.814,1,0.96,153,43.31,-80.14446913,25.88334941,0,0,1,N,1.599676,43,43,11,120,120,54.46857,0,9999.99,3.32,3.450105,2,9,29.7,0,29.70000076,46.52,1556.90545,10/21/21,10:35:37,26.68,68.26,46.52,1.341,7.95,-56.2,-5.4,-2.9,9158,93.4,5.76,12.9,
25.8815754,-80.14633032,59:25.9,10/21/21,10,0.764,26.63,-7.117706431,0.89,55.0,50.7,3.5,-6.87,36.5,0.01,3.3,3.31,92,24,510.5,16.2,-1.5,D,1391.1,0,271.259,1,1.06,153,43.35,-80.14446913,25.88334941,0,0,1,N,1.532582,78,78,11,147,147,55.63298,0,9999.99,3.28,3.407,2,9,29.6,0,29.60000038,46.53,1556.71615,10/21/21,10:35:39,26.67,68.27,46.53,1.389,7.95,-56.1,-3.6,-4.6,12089,93.5,5.77,12.9,
25.88157953,-80.14632543,59:26.9,10/21/21,10,1.223,26.63,-7.117706431,0.89,64.5,60.06,-1.66,-2.6,36.6,0.01,3.4,3.41,92,25,510.5,16.2,-1.5,D,1371.3,0,270.589,1,0.96,153,43.34,-80.14446913,25.88334941,0,0,1,N,1.761222,47,47,11,108,108,55.37567,0,9999.99,3.4,3.527,2,9,29.6,0,29.60000038,46.53,1556.71615,10/21/21,10:35:39,26.67,68.27,46.53,1.389,7.95,-56.1,-3.6,-4.6,12089,93.5,5.77,12.9,
25.88158256,-80.14632256,59:27.9,10/21/21,10,0.746,26.63,-7.117706431,0.89,57.2,52.88,3.65,2.19,36.6,0.01,3.3,3.31,92,25,510.5,16.2,-1.5,D,1371.3,0,270.148,1,1.03,153,43.34,-80.14446913,25.88334941,0,0,1,N,1.775438,79,79,11,137,137,55.47275,0,9999.99,3.3,3.427,2,9,29.6,0,29.60000038,45.5,1555.63571,10/21/21,10:35:40,26.67,66.95,45.5,1.367,7.94,-56.0,-5.2,-5.3,4638,93.4,5.8,12.8,
25.88158464,-80.14631844,59:28.9,10/21/21,10,1.107,26.63,-7.117706431,0.89,62.2,57.8,0.49,-8.9,36.6,0.0,3.34,3.34,92,25,510.5,16.2,-1.5,D,1371.3,0,269.696,1,1.02,153,43.31,-80.14446913,25.88334941,0,0,1,N,1.656484,60,60,11,114,114,54.55047,0,9999.99,3.35,3.477,2,9,29.6,0,29.60000038,46.52,1556.70517,10/21/21,10:35:41,26.67,68.26,46.52,1.271,7.94,-56.0,-5.5,14.5,86832,93.4,5.77,12.9,
25.88159301,-80.14630676,59:32.0,10/21/21,10,0.922,38.14,-7.117706431,0.89,61.5,57.12,1.26,-1.76,36.6,0.0,3.39,3.39,92,24,510.5,16.2,-1.5,D,1391.9,0,268.217,1,1.02,153,43.27,-80.14446913,25.88334941,0,0,1,N,1.416427,65,65,11,111,111,52.99993,0,9999.99,3.39,3.517,2,9,29.6,0,29.60000038,43.56,1553.60132,10/21/21,10:35:45,26.67,64.44,43.56,1.351,7.94,-56.0,-3.9,-1.1,81497,93.8,5.89,12.9,
25.88159513,-80.14630207,59:32.9,10/21/21,10,0.917,38.14,-7.117706431,0.89,59.7,55.35,1.18,-3.02,36.6,0.0,3.31,3.31,92,24,510.5,16.2,-1.5,D,1391.9,0,267.724,1,1.01,153,43.23,-80.14446913,25.88334941,0,0,1,N,1.235833,65,65,11,110,110,51.74101,0,9999.99,3.33,3.457,2,9,29.6,0,29.60000038,43.56,1553.60132,10/21/21,10:35:45,26.67,64.44,43.56,1.351,7.94,-56.0,-3.9,-1.1,81497,93.8,5.89,12.9,
25.88160082,-80.14629203,59:35.0,10/21/21,10,1.183,42.79,-7.117706431,0.89,60.5,56.13,2.02,0.21,36.6,0.01,3.34,3.35,92,24,510.5,16.2,-1.5,D,1391.9,0,266.576,1,1.04,153,43.17,-80.14446913,25.88334941,0,0,1,N,0.8996484,74,74,11,110,110,49.563,0,9999.99,3.34,3.467,2,9,29.6,0,29.60000038,46.52,1556.70504,10/21/21,10:35:48,26.67,68.26,46.52,1.209,7.94,-56.0,-5.6,-2.0,5637,93.6,5.78,12.8,
25.88160488,-80.14628708,59:36.0,10/21/21,10,1.063,42.79,-7.117706431,0.89,60.7,56.33,1.44,-1.57,36.5,0.0,3.38,3.38,92,24,510.5,16.2,-1.5,D,1386.4,0,265.907,1,1.05,153,43.15,-80.14446913,25.88334941,0,0,1,N,0.8739371,66,66,11,98,98,49.19354,0,9999.99,3.38,3.507,2,9,29.6,0,29.60000038,46.52,1556.70504,10/21/21,10:35:48,26.67,68.26,46.52,1.209,7.94,-56.0,-5.6,-2.0,5637,93.6,5.78,12.8,
25.88161233,-80.14627563,59:39.0,10/21/21,10,1.139,42.79,-7.117706431,0.89,61.5,57.12,0.87,0.89,36.5,0.01,3.29,3.3,92,24,510.4,16.2,-1.5,D,1393.6,0,264.52,1,0.99,153,43.1,-80.14446913,25.88334941,0,0,1,N,0.6017325,61,61,11,89,89,47.2605,0,9999.99,3.31,3.437,2,9,29.6,0,29.60000038,46.53,1556.71544,10/21/21,10:35:51,26.66,68.27,46.53,1.204,7.94,-55.9,-4.8,8.8,19667,93.5,5.77,12.9,
25.88161628,-80.14627277,59:40.0,10/21/21,10,0.974,42.79,-7.117706431,0.89,57.7,53.37,0.29,-2.29,36.6,0.0,3.3,3.3,92,24,510.4,16.2,-1.5,D,1393.6,0,264.003,1,1.07,153,43.12,-80.14446913,25.88334941,0,0,1,N,0.6883382,63,63,11,109,109,47.87674,0,9999.99,3.31,3.437,2,9,29.6,0,29.60000038,46.51,1556.69451,10/21/21,10:35:53,26.68,68.25,46.51,1.158,7.94,-55.8,-4.7,21.1,71469,93.4,5.77,12.9,
25.88161957,-80.14626978,59:41.0,10/21/21,10,0.952,42.79,-7.117706431,0.89,54.4,50.11,1.57,-2.06,36.6,0.0,3.32,3.32,92,24,510.4,16.2,-1.5,D,1393.6,0,263.533,1,1.01,153,43.12,-80.14446913,25.88334941,0,0,1,N,0.7103705,66,66,11,119,119,48.03334,0,9999.99,3.32,3.447,2,9,29.6,0,29.60000038,46.51,1556.69451,10/21/21,10:35:53,26.68,68.25,46.51,1.158,7.94,-55.8,-4.7,21.1,71469,93.4,5.77,12.9,
25.88162035,-80.14626715,59:42.0,10/21/21,10,0.652,42.79,-7.117706431,0.89,56.4,52.09,0.28,-2.08,36.6,0.0,3.29,3.29,92,24,510.4,16.2,-1.5,D,1393.6,0,263.289,1,1.01,153,43.09,-80.14446913,25.88334941,0,0,1,N,0.580423,59,59,11,107,107,47.10866,0,9999.99,3.29,3.417,2,9,29.6,0,29.60000038,46.51,1556.69425,10/21/21,10:35:54,26.68,68.24,46.51,1.237,7.94,-55.7,-5.6,-7.4,8175,93.5,5.77,12.9,
25.88162195,-80.14626307,59:43.0,10/21/21,10,0.992,44.68,-7.117706431,0.89,51.9,47.62,-0.11,-4.82,36.6,0.0,3.29,3.29,92,25,510.4,16.2,-1.5,D,1370.2,0,262.88,1,0.99,153,43.05,-80.14446913,25.88334941,0,0,1,N,0.400271,55,55,11,114,114,45.82318,0,9999.99,3.31,3.437,2,9,29.6,0,29.60000038,40.02,1549.89306,10/21/21,10:35:56,26.67,59.81,40.02,1.115,7.94,-55.5,-4.2,7.2,45305,93.5,5.99,12.7,
25.8816256,-80.14625954,59:44.0,10/21/21,10,1.033,44.68,-7.117706431,0.89,57.9,53.57,1.97,-1.52,36.5,0.01,3.3,3.31,92,25,510.4,16.2,-1.5,D,1370.2,0,262.342,1,0.94,153,43.06,-80.14446913,25.88334941,0,0,1,N,0.4223978,69,69,11,97,97,45.98125,0,9999.99,3.3,3.427,2,9,29.6,0,29.60000038,40.02,1549.89306,10/21/21,10:35:56,26.67,59.81,40.02,1.115,7.94,-55.5,-4.2,7.2,45305,93.5,5.99,12.7,
25.88162987,-80.14625651,59:45.0,10/21/21,10,1.016,44.68,-7.117706431,0.89,55.0,50.7,1.8,-0.19,36.5,0.01,3.3,3.31,92,25,510.4,16.2,-1.5,D,1370.2,0,261.789,1,1.01,153,43.08,-80.14446913,25.88334941,0,0,1,N,0.5210329,68,68,11,111,111,46.68516,0,9999.99,3.32,3.447,2,9,29.6,0,29.60000038,46.51,1556.69434,10/21/21,10:35:57,26.67,68.24,46.51,1.233,7.94,-55.5,-5.1,-2.8,3556,93.7,5.79,13.0,
25.8816412,-80.146246,59:48.0,10/21/21,10,1.156,37.8,-7.117706431,0.89,53.7,49.41,1.37,-2.93,36.6,0.01,3.36,3.37,92,24,510.4,16.2,-1.4,D,1422.4,0,260.15,1,1.01,153,43.1,-80.14446913,25.88334941,0,0,1,N,0.6098344,65,65,11,119,119,47.31795,0,9999.99,3.37,3.497,2,9,29.6,0,29.60000038,44.75,1554.84874,10/21/21,10:36:00,26.69,65.98,44.75,1.128,7.94,-55.5,-4.1,-4.0,13909,94.1,5.86,12.8,
25.88164481,-80.14624241,59:49.1,10/21/21,10,0.991,37.8,-7.117706431,0.95,47.3,43.03,2.07,-2.29,36.6,0.0,3.37,3.37,92,24,510.4,16.2,-1.4,D,1422.4,0,259.612,1,1.04,153,43.1,-80.14446913,25.88334941,0,0,1,N,0.613799,69,69,11,144,144,47.34615,0,9999.99,3.38,3.507,2,9,29.5,0,29.5,46.49,1556.47249,10/21/21,10:36:02,26.68,68.22,46.49,1.223,7.94,-55.5,-5.3,-0.9,-3110,94.1,5.81,13.0,
25.88164819,-80.14623827,59:50.1,10/21/21,10,0.978,37.8,-7.117706431,0.89,52.5,48.22,1.47,-7.33,36.5,0.01,3.44,3.45,92,24,510.4,16.2,-1.5,D,1415.7,0,259.055,1,1.0,153,43.09,-80.14446913,25.88334941,0,0,1,N,0.5731772,66,66,11,122,122,47.05681,0,9999.99,3.45,3.577,2,9,29.5,0,29.5,46.49,1556.47249,10/21/21,10:36:02,26.68,68.22,46.49,1.223,7.94,-55.5,-5.3,-0.9,-3110,94.1,5.81,13.0,
25.88165179,-80.14623389,59:51.1,10/21/21,10,1.235,37.8,-7.117706431,0.89,54.3,50.01,1.19,1.87,36.6,0.01,3.39,3.4,92,24,510.4,16.2,-1.5,D,1415.7,0,258.463,1,1.01,153,43.08,-80.14446913,25.88334941,0,0,1,N,0.5267556,64,64,11,114,114,46.72577,0,9999.99,3.41,3.537,2,9,29.5,0,29.5,43.11,1552.92718,10/21/21,10:36:03,26.69,63.85,43.11,1.284,7.94,-55.5,-5.6,-0.2,-575,94.2,5.92,13.1,
25.88165559,-80.14623112,59:52.1,10/21/21,10,0.951,37.8,-7.117706431,0.93,53.8,49.51,0.06,0.65,36.6,0.01,3.37,3.37,92,24,510.4,16.2,-1.5,D,1415.7,0,257.965,1,1.01,153,43.1,-80.14446913,25.88334941,0,0,1,N,0.6125814,57,57,11,118,118,47.33742,0,9999.99,3.38,3.507,2,9,29.5,0,29.5,46.33,1556.30462,10/21/21,10:36:05,26.69,68.02,46.33,1.108,7.93,-55.3,-5.2,-1.9,-3143,94.1,5.81,13.0,
25.8816581,-80.14622823,59:53.1,10/21/21,10,1.032,37.8,-7.117706431,0.89,52.3,48.02,1.07,-6.4,36.6,0.01,3.37,3.38,92,24,510.4,16.2,-1.5,D,1415.7,0,257.564,1,1.04,153,43.1,-80.14446913,25.88334941,0,0,1,N,0.5907948,63,63,11,124,124,47.18219,0,9999.99,3.37,3.497,2,9,29.5,0,29.5,46.33,1556.30462,10/21/21,10:36:05,26.69,68.02,46.33,1.108,7.93,-55.3,-5.2,-1.9,-3143,94.1,5.81,13.0,
25.88166138,-80.14622457,59:54.1,10/21/21,10,1.04,37.8,-7.117706431,0.9,52.7,48.42,2.22,0.91,36.5,0.0,3.37,3.37,92,24,510.4,16.2,-1.5,D,1403.5,0,257.047,1,1.02,153,43.09,-80.14446913,25.88334941,0,0,1,N,0.5701431,70,70,11,121,121,47.03506,0,9999.99,3.37,3.497,2,9,29.5,0,29.5,46.52,1556.50426,10/21/21,10:36:06,26.7,68.26,46.52,1.217,7.93,-55.4,-4.7,-3.6,55388,94.1,5.8,12.8,
25.88166458,-80.14622072,59:55.1,10/21/21,10,1.064,37.8,-7.117706431,0.9,53.8,49.51,0.53,-2.62,36.6,0.0,3.35,3.35,92,24,510.4,16.2,-1.5,D,1403.5,0,256.524,1,1.04,153,43.09,-80.14446913,25.88334941,0,0,1,N,0.5322904,63,63,11,117,117,46.76521,0,9999.99,3.37,3.497,2,9,29.5,0,29.5,42.6,1552.39169,10/21/21,10:36:08,26.71,63.19,42.6,1.168,7.93,-55.3,-4.6,-3.7,39158,93.9,5.92,12.9,
25.88166924,-80.14621804,59:56.1,10/21/21,10,1.219,37.8,-7.117706431,0.93,51.6,47.32,2.71,-7.79,36.5,0.01,3.4,3.4,92,24,510.4,16.2,-1.5,D,1403.5,0,255.963,1,1.04,153,43.12,-80.14446913,25.88334941,0,0,1,N,0.6887976,72,72,11,122,122,47.87955,0,9999.99,3.4,3.527,2,9,29.5,0,29.5,42.6,1552.39169,10/21/21,10:36:08,26.71,63.19,42.6,1.168,7.93,-55.3,-4.6,-3.7,39158,93.9,5.92,12.9,
25.88168072,-80.14620724,59:59.1,10/21/21,10,1.049,37.8,-7.117706431,0.9,54.7,50.4,2.33,-6.4,36.5,0.0,3.4,3.41,92,24,510.3,16.2,-1.4,D,1419.3,0,254.292,1,1.02,153,43.14,-80.14446913,25.88334941,0,0,1,N,0.7688524,71,71,11,122,122,48.44814,0,9999.99,3.41,3.537,2,9,29.5,0,29.5,46.52,1556.50371,10/21/21,10:36:12,26.72,68.26,46.52,1.197,7.93,-55.4,-5.2,-8.9,-7021,94.2,5.81,12.8,
25.88168487,-80.14620356,00:00.1,10/21/21,10,1.151,37.8,-7.117706431,0.9,54.3,50.01,0.08,-1.34,36.6,0.0,3.41,3.42,92,24,510.3,16.2,-1.4,D,1419.3,0,253.704,1,1.02,153,43.15,-80.14446913,25.88334941,0,0,1,N,0.8147625,57,57,11,122,122,48.77375,0,9999.99,3.43,3.557,2,9,29.5,0,29.5,46.52,1556.50371,10/21/21,10:36:12,26.72,68.26,46.52,1.197,7.93,-55.4,-5.2,-8.9,-7021,94.2,5.81,12.8,
25.88169097,-80.14619643,00:02.1,10/21/21,10,0.949,37.8,-7.117706431,0.9,56.1,51.79,2.84,-3.16,36.5,0.01,3.43,3.45,92,24,510.3,16.2,-1.5,D,1407.1,0,252.721,1,1.0,153,43.14,-80.14446913,25.88334941,0,0,1,N,0.7599415,65,65,11,106,106,48.38483,0,9999.99,3.43,3.557,2,9,29.5,0,29.5,45.12,1555.0352,10/21/21,10:36:15,26.7,66.47,45.12,1.367,7.93,-55.3,-4.2,-0.4,60960,94.0,5.85,13.0,
25.88169522,-80.14619457,00:03.1,10/21/21,10,1.048,37.8,-7.117706431,0.9,59.1,54.75,-3.01,-5.8,36.6,0.01,3.38,3.4,92,24,510.3,16.2,-1.5,D,1407.1,0,252.25,1,0.95,153,43.18,-80.14446913,25.88334941,0,0,1,N,0.9453095,43,43,11,108,108,49.69751,0,9999.99,3.41,3.537,2,9,29.5,0,29.5,45.12,1555.0352,10/21/21,10:36:15,26.7,66.47,45.12,1.367,7.93,-55.3,-4.2,-0.4,60960,94.0,5.85,13.0,
25.88169738,-80.14618965,00:04.1,10/21/21,10,1.067,37.8,-7.117706431,0.9,58.1,53.77,3.22,2.75,36.6,0.02,3.37,3.38,92,24,510.3,16.2,-1.5,D,1396.9,0,251.737,1,0.99,153,43.14,-80.14446913,25.88334941,0,0,1,N,0.7511373,76,76,11,105,105,48.32219,0,9999.99,3.34,3.467,2,9,29.5,0,29.5,46.54,1556.52615,10/21/21,10:36:17,26.7,68.29,46.54,1.335,7.93,-55.2,-3.9,1.5,27007,93.8,5.79,13.0,
25.88170042,-80.14618561,00:05.1,10/21/21,10,0.961,37.8,-7.117706431,0.9,58.8,54.46,1.62,-6.0,36.6,0.0,3.37,3.37,92,24,510.3,16.2,-1.5,D,1396.9,0,251.214,1,0.97,153,43.12,-80.14446913,25.88334941,0,0,1,N,0.6894781,67,67,11,101,101,47.88412,0,9999.99,3.39,3.517,2,9,29.5,0,29.5,46.54,1556.52615,10/21/21,10:36:17,26.7,68.29,46.54,1.335,7.93,-55.2,-3.9,1.5,27007,93.8,5.79,13.0,
25.88172047,-80.14616519,00:11.1,10/21/21,10,1.028,38.69,-7.117706431,0.9,53.6,49.31,2.43,-4.21,36.5,0.0,3.4,3.4,92,24,510.2,16.2,-1.5,D,1390.4,0,248.191,1,0.94,153,43.13,-80.14446913,25.88334941,0,0,1,N,0.7016775,72,72,11,122,122,47.97071,0,9999.99,3.42,3.547,2,9,29.5,0,29.5,46.46,1556.44069,10/21/21,10:36:23,26.71,68.18,46.46,1.232,7.93,-55.0,-5.2,-5.0,9336,93.6,5.78,13.0,
25.88172342,-80.14616288,00:12.1,10/21/21,10,0.835,38.69,-7.117706431,0.9,53.7,49.41,-2.32,-8.3,36.5,0.02,3.49,3.5,92,24,510.2,16.2,-1.5,D,1390.4,0,247.794,1,0.98,153,43.14,-80.14446913,25.88334941,0,0,1,N,0.7543426,43,43,11,123,123,48.34484,0,9999.99,3.51,3.637,2,9,29.5,0,29.5,42.14,1551.90948,10/21/21,10:36:24,26.72,62.6,42.14,1.214,7.93,-55.0,-3.3,-2.4,1285,93.5,5.91,12.9,
25.88172652,-80.14615954,00:13.1,10/21/21,10,0.892,38.69,-7.117706431,0.9,54.9,50.6,2.03,-4.89,36.4,0.01,3.41,3.42,92,24,510.2,16.2,-1.5,D,1390.4,0,247.313,1,0.99,153,43.14,-80.14446913,25.88334941,0,0,1,N,0.7473221,69,69,11,118,118,48.2949,0,9999.99,3.39,3.517,2,9,29.5,0,29.5,46.49,1556.47382,10/21/21,10:36:26,26.7,68.22,46.49,1.305,7.93,-54.9,-4.7,-4.2,1069,93.5,5.77,12.9,
25.88172799,-80.1461558,00:14.2,10/21/21,10,0.869,38.69,-7.117706431,0.9,56.0,51.69,-1.23,-5.35,36.5,0.01,3.42,3.44,92,24,510.2,16.2,-1.5,D,1390.4,0,246.939,1,0.98,153,43.1,-80.14446913,25.88334941,0,0,1,N,0.5839015,50,50,11,109,109,47.13251,0,9999.99,3.44,3.567,2,9,29.5,0,29.5,46.49,1556.47382,10/21/21,10:36:26,26.7,68.22,46.49,1.305,7.93,-54.9,-4.7,-4.2,1069,93.5,5.77,12.9,
25.88174423,-80.14613993,00:19.2,10/21/21,10,0.755,38.69,-7.117706431,0.9,58.1,53.77,0.56,-2.77,36.5,0.0,3.46,3.46,92,24,510.2,16.2,-1.5,D,1411.5,0,244.535,1,0.92,153,43.12,-80.14446913,25.88334941,0,0,1,N,0.6601532,60,60,11,103,103,47.67527,0,9999.99,3.47,3.597,2,9,29.4,0,29.39999962,46.48,1556.26016,10/21/21,10:36:32,26.71,68.21,46.48,1.227,7.92,-54.8,-4.1,-4.4,20370,93.1,5.74,12.9,
25.88174657,-80.14613695,00:20.2,10/21/21,10,1.037,43.58,-7.117706431,0.9,54.8,50.5,1.88,-7.8,36.5,0.0,3.4,3.41,92,24,510.2,16.2,-1.5,D,1411.5,0,244.142,1,0.92,153,43.11,-80.14446913,25.88334941,0,0,1,N,0.6141359,63,63,11,120,120,47.34775,0,9999.99,3.42,3.547,2,9,29.4,0,29.39999962,46.48,1556.26016,10/21/21,10:36:32,26.71,68.21,46.48,1.227,7.92,-54.8,-4.1,-4.4,20370,93.1,5.74,12.9,
25.88174972,-80.14613341,00:21.2,10/21/21,10,1.024,43.58,-7.117706431,0.9,54.2,49.91,1.37,-5.38,36.5,0.0,3.46,3.46,92,24,510.2,16.2,-1.5,D,1411.5,0,243.644,1,0.89,153,43.11,-80.14446913,25.88334941,0,0,1,N,0.5910741,67,67,11,122,122,47.18345,0,9999.99,3.47,3.597,2,9,29.4,0,29.39999962,44.83,1554.5279,10/21/21,10:36:33,26.7,66.09,44.83,1.335,7.92,-54.7,-2.4,9.5,14476,93.1,5.8,12.9,
25.88175239,-80.14612896,00:22.3,10/21/21,10,0.961,43.58,-7.117706431,0.9,56.6,52.29,2.24,-4.12,36.5,0.01,3.41,3.42,92,24,510.2,16.2,-1.5,D,1406.8,0,243.123,1,0.91,153,43.08,-80.14446913,25.88334941,0,0,1,N,0.4703918,70,70,11,103,103,46.32287,0,9999.99,3.43,3.557,2,9,29.4,0,29.39999962,46.14,1555.90325,10/21/21,10:36:35,26.71,67.77,46.14,1.135,7.92,-54.8,-4.8,-4.3,1911,93.0,5.75,12.9,
25.88175612,-80.14612307,00:23.3,10/21/21,10,1.017,51.63,-7.117706431,0.9,54.4,50.11,2.73,-6.29,36.6,0.01,3.44,3.44,92,24,510.2,16.2,-1.5,D,1406.8,0,242.418,1,0.9,153,43.04,-80.14446913,25.88334941,0,0,1,N,0.3208484,73,73,11,108,108,45.25452,0,9999.99,3.46,3.587,2,9,29.4,0,29.39999962,46.21,1555.97721,10/21/21,10:36:36,26.71,67.87,46.21,1.155,7.92,-54.8,-4.3,-3.2,776,93.0,5.75,12.8,
25.88175979,-80.14612023,00:24.3,10/21/21,10,1.038,51.63,-7.117706431,0.9,55.2,50.9,0.51,-5.02,36.5,0.01,3.47,3.48,92,24,510.2,16.2,-1.5,D,1406.8,0,241.925,1,0.9,153,43.06,-80.14446913,25.88334941,0,0,1,N,0.3933874,57,57,11,99,99,45.77296,0,9999.99,3.47,3.597,2,9,29.4,0,29.39999962,46.21,1555.97721,10/21/21,10:36:36,26.71,67.87,46.21,1.155,7.92,-54.8,-4.3,-3.2,776,93.0,5.75,12.8,
25.88176295,-80.14611595,00:25.3,10/21/21,10,0.998,51.63,-7.117706431,0.9,56.8,52.48,1.84,-0.24,36.6,0.0,3.42,3.42,92,24,510.2,16.2,-1.5,D,1394.6,0,241.376,1,0.94,154,43.04,-80.14446913,25.88334941,0,0,1,N,0.3219901,68,68,11,98,98,45.2626,0,9999.99,3.43,3.557,2,9,29.4,0,29.39999962,46.47,1556.25018,10/21/21,10:36:38,26.7,68.19,46.47,1.198,7.92,-54.5,-4.1,11.2,7419,93.1,5.74,12.9,
25.88176644,-80.1461129,00:26.3,10/21/21,10,0.838,51.63,-7.117706431,0.9,53.7,49.41,-0.24,-2.14,36.5,0.01,3.44,3.45,92,24,510.2,16.2,-1.5,D,1394.6,0,240.884,1,0.93,154,43.05,-80.14446913,25.88334941,0,0,1,N,0.3578777,56,56,11,111,111,45.51916,0,9999.99,3.45,3.577,2,9,29.4,0,29.39999962,46.47,1556.25018,10/21/21,10:36:38,26.7,68.19,46.47,1.198,7.92,-54.5,-4.1,11.2,7419,93.1,5.74,12.9,
25.88176946,-80.14611009,00:27.3,10/21/21,10,0.97,51.63,-7.117706431,0.9,54.4,50.11,2.01,-1.85,36.5,0.01,3.43,3.44,92,24,510.2,16.2,-1.5,D,1394.6,0,240.447,1,0.95,154,43.06,-80.14446913,25.88334941,0,0,1,N,0.3803724,71,71,11,110,110,45.67995,0,9999.99,3.45,3.577,2,9,29.4,0,29.39999962,46.42,1556.19766,10/21/21,10:36:39,26.71,68.13,46.42,1.183,7.92,-54.6,-4.5,-2.5,22126,93.0,5.74,13.0,
25.88177227,-80.14610622,00:28.4,10/21/21,10,0.906,51.63,-7.117706431,0.9,57.1,52.78,2.09,-0.79,36.5,0.01,3.46,3.47,92,24,510.2,16.2,-1.5,D,1394.6,0,239.954,1,0.97,154,43.04,-80.14446913,25.88334941,0,0,1,N,0.3157822,70,70,11,97,97,45.21813,0,9999.99,3.48,3.607,2,9,29.4,0,29.39999962,38.32,1547.6998,10/21/21,10:36:40,26.71,57.56,38.32,1.341,7.92,-54.6,-4.6,-2.4,-2018,93.0,6.01,12.8,
25.88177448,-80.1461033,00:29.4,10/21/21,10,1.019,51.63,-7.117706431,0.9,55.9,51.59,0.67,-0.32,36.5,0.01,3.46,3.47,92,24,510.1,16.2,-1.5,D,1388.3,0,239.575,1,0.97,154,43.03,-80.14446913,25.88334941,0,0,1,N,0.264452,61,61,11,105,105,44.85099,0,9999.99,3.47,3.597,2,9,29.4,0,29.39999962,46.44,1556.21861,10/21/21,10:36:42,26.72,68.16,46.44,1.168,7.92,-54.5,-5.2,-3.0,52939,92.9,5.73,12.9,
25.88177684,-80.14609995,00:30.4,10/21/21,10,0.825,51.63,-7.117706431,0.9,50.0,45.73,1.03,-6.98,36.5,0.01,3.43,3.44,92,24,510.1,16.2,-1.5,D,1388.3,0,239.155,1,0.95,154,43.02,-80.14446913,25.88334941,0,0,1,N,0.1921676,63,63,11,121,121,44.33364,0,9999.99,3.44,3.567,2,9,29.4,0,29.39999962,46.44,1556.21861,10/21/21,10:36:42,26.72,68.16,46.44,1.168,7.92,-54.5,-5.2,-3.0,52939,92.9,5.73,12.9,
25.88178026,-80.14609543,00:31.4,10/21/21,10,1.2,51.63,-7.117706431,0.9,52.0,47.72,2.12,-1.62,36.5,0.01,3.47,3.48,92,24,510.1,16.2,-1.5,D,1405.6,0,238.568,1,0.96,154,43.0,-80.14446913,25.88334941,0,0,1,N,0.1268445,70,70,11,112,112,43.86596,0,9999.99,3.49,3.617,2,9,29.4,0,29.39999962,46.42,1556.19783,10/21/21,10:36:43,26.7,68.13,46.42,1.185,7.92,-54.5,-5.5,-8.6,4101,93.0,5.74,12.9,
25.88178296,-80.14609233,00:32.4,10/21/21,10,0.798,51.63,-7.117706431,0.9,48.2,43.93,1.2,-5.92,36.5,0.01,3.5,3.51,92,24,510.1,16.2,-1.5,D,1405.6,0,238.137,1,0.93,154,42.99,-80.14446913,25.88334941,0,0,1,N,0.0993,64,64,11,126,126,43.6688,0,9999.99,3.5,3.627,2,9,29.4,0,29.39999962,14.89,1523.21466,10/21/21,10:36:45,26.72,24.57,14.89,1.156,7.92,-54.5,-6.3,-2.1,57589,92.9,6.85,12.9,
25.88178539,-80.14608881,00:33.4,10/21/21,10,1.083,51.63,-7.117706431,0.9,52.8,48.52,0.27,-6.17,36.5,0.01,3.43,3.43,92,24,510.1,16.2,-1.5,D,1405.6,0,237.699,1,0.97,154,42.97,-80.14446913,25.88334941,0,0,1,N,0.0391,56,56,11,93,93,43.23784,0,9999.99,3.42,3.547,2,9,29.4,0,29.39999962,14.89,1523.21466,10/21/21,10:36:45,26.72,24.57,14.89,1.156,7.92,-54.5,-6.3,-2.1,57589,92.9,6.85,12.9,
25.88178993,-80.14608696,00:34.4,10/21/21,10,0.699,51.63,-7.117706431,0.9,54.1,49.81,1.74,2.89,36.4,0.01,3.39,3.4,92,25,510.1,16.2,-1.5,D,1372.0,0,237.204,1,0.91,154,43.03,-80.14446913,25.88334941,0,0,1,N,0.2429775,67,67,11,107,107,44.69718,0,9999.99,3.41,3.537,2,9,29.4,0,29.39999962,46.45,1556.22914,10/21/21,10:36:47,26.7,68.17,46.45,1.259,7.92,-54.4,-3.8,-6.6,54894,93.0,5.74,12.9,
25.88179325,-80.1460843,00:35.4,10/21/21,10,1.045,51.63,-7.117706431,0.9,51.1,46.82,1.53,-8.2,36.4,0.01,3.44,3.45,92,25,510.1,16.2,-1.5,D,1372.0,0,236.753,1,0.97,154,43.04,-80.14446913,25.88334941,0,0,1,N,0.2950632,66,66,11,120,120,45.06986,0,9999.99,3.45,3.577,2,9,29.4,0,29.39999962,46.45,1556.22914,10/21/21,10:36:47,26.7,68.17,46.45,1.259,7.92,-54.4,-3.8,-6.6,54894,93.0,5.74,12.9,
25.88179608,-80.14608106,00:36.4,10/21/21,10,0.85,51.63,-7.117706431,0.9,50.4,46.12,2.11,-2.72,36.4,0.01,3.41,3.41,92,25,510.1,16.2,-1.5,D,1372.0,0,236.302,1,0.95,154,43.03,-80.14446913,25.88334941,0,0,1,N,0.275096,70,70,11,122,122,44.92704,0,9999.99,3.42,3.547,2,9,29.4,0,29.39999962,36.49,1545.78217,10/21/21,10:36:48,26.72,55.12,36.49,1.122,7.92,-54.3,-5.1,-5.7,13648,93.0,6.07,12.8,
25.88179908,-80.14607806,00:37.4,10/21/21,10,1.042,51.63,-7.117706431,0.9,48.8,44.53,2.39,-3.49,36.4,0.01,3.48,3.49,92,25,510.1,16.2,-1.5,D,1372.0,0,235.852,1,0.98,154,43.04,-80.14446913,25.88334941,0,0,1,N,0.2813346,69,69,11,119,119,44.97159,0,9999.99,3.5,3.627,2,9,29.3,0,29.39999962,23.86,1532.57156,10/21/21,10:36:50,26.72,37.7,23.86,1.136,7.92,-54.4,-3.9,-3.9,-1712,93.0,6.51,13.0,
25.88180301,-80.14607647,00:38.4,10/21/21,10,1.01,51.63,-7.117706431,0.95,52.1,47.82,0.48,-4.49,36.5,0.0,3.44,3.44,92,24,510.1,16.2,-1.5,D,1398.2,0,235.425,1,0.98,154,43.08,-80.14446913,25.88334941,0,0,1,N,0.4672842,58,58,11,125,125,46.30043,0,9999.99,3.44,3.567,2,9,29.4,0,29.39999962,23.86,1532.57156,10/21/21,10:36:50,26.72,37.7,23.86,1.136,7.92,-54.4,-3.9,-3.9,-1712,93.0,6.51,13.0,
25.88180648,-80.1460728,00:39.4,10/21/21,10,0.842,51.63,-7.117706431,0.9,47.1,42.83,0.25,-0.27,36.4,0.01,3.45,3.46,92,24,510.1,16.2,-1.5,D,1398.2,0,234.893,1,0.94,154,43.08,-80.14446913,25.88334941,0,0,1,N,0.4525981,59,59,11,140,140,46.19552,0,9999.99,3.46,3.587,2,9,29.4,0,29.39999962,46.43,1556.20773,10/21/21,10:36:52,26.71,68.14,46.43,1.23,7.92,-54.3,-3.7,-8.2,-4993,92.9,5.73,12.8,
25.88180916,-80.14607007,00:40.4,10/21/21,10,0.806,51.63,-7.117706431,0.9,50.7,46.42,1.6,-5.69,36.5,0.01,3.44,3.44,92,24,510.1,16.2,-1.5,D,1398.2,0,234.488,1,0.96,154,43.08,-80.14446913,25.88334941,0,0,1,N,0.4600038,68,68,11,133,133,46.24838,0,9999.99,3.45,3.577,2,9,29.3,0,29.39999962,46.43,1556.20773,10/21/21,10:36:52,26.71,68.14,46.43,1.23,7.92,-54.3,-3.7,-8.2,-4993,92.9,5.73,12.8,
25.88181145,-80.14606783,00:41.4,10/21/21,10,0.92,51.63,-7.117706431,0.9,53.7,49.41,0.79,3.55,36.4,0.01,3.46,3.46,92,24,510.1,16.2,-1.5,D,1390.7,0,234.149,1,0.97,154,43.08,-80.14446913,25.88334941,0,0,1,N,0.4701622,59,59,11,125,125,46.32088,0,9999.99,3.46,3.587,2,9,29.3,0,29.29999924,39.56,1548.79244,10/21/21,10:36:53,26.69,59.2,39.56,1.279,7.91,-54.2,-4.8,1.0,-698,92.8,5.96,12.9,
25.88181481,-80.14606371,00:42.4,10/21/21,10,0.903,51.63,-7.117706431,0.9,51.4,47.12,0.78,-3.89,36.4,0.0,3.44,3.44,92,24,510.1,16.2,-1.5,D,1390.7,0,233.594,1,0.94,154,43.07,-80.14446913,25.88334941,0,0,1,N,0.4232619,62,62,11,122,122,45.98603,0,9999.99,3.45,3.577,2,9,29.3,0,29.29999924,46.43,1556.0057,10/21/21,10:36:55,26.7,68.14,46.43,1.23,7.91,-54.2,-3.1,-3.2,14505,92.8,5.73,12.9,
25.88181959,-80.14606028,00:43.4,10/21/21,10,1.151,51.63,-7.117706431,0.9,49.9,45.63,1.3,-0.98,36.4,0.0,3.41,3.41,92,24,510.1,16.2,-1.5,D,1390.7,0,232.971,1,0.99,154,43.1,-80.14446913,25.88334941,0,0,1,N,0.5372932,68,68,11,121,121,46.79984,0,9999.99,3.43,3.557,2,9,29.3,0,29.29999924,43.82,1553.26384,10/21/21,10:36:56,26.7,64.78,43.82,1.231,7.91,-54.2,-5.4,-2.4,9694,92.9,5.82,12.9,
25.88183582,-80.14605185,00:47.5,10/21/21,10,0.629,51.63,-7.117706431,0.9,54.9,50.6,1.34,-3.44,36.5,0.01,3.43,3.43,92,25,510.0,16.2,-1.5,D,1371.8,0,231.079,1,0.94,154,43.25,-80.14446913,25.88334941,0,0,1,N,1.150327,65,65,11,129,129,51.1402,0,9999.99,3.44,3.567,2,9,29.3,0,29.29999924,46.42,1555.99544,10/21/21,10:37:00,26.7,68.13,46.42,1.242,7.91,-54.1,-4.8,0.3,17921,92.8,5.73,12.8,
25.88183961,-80.14604896,00:48.5,10/21/21,10,0.861,51.63,-7.117706431,0.9,55.0,50.7,-0.79,-1.4,36.5,0.01,3.38,3.38,92,24,510.0,16.2,-1.5,D,1383.4,0,230.573,1,0.94,154,43.27,-80.14446913,25.88334941,0,0,1,N,1.225221,52,52,11,131,131,51.66505,0,9999.99,3.39,3.517,2,9,29.3,0,29.29999924,46.39,1555.9639,10/21/21,10:37:01,26.71,68.09,46.39,1.248,7.91,-54.1,-4.2,-7.9,4029,92.9,5.73,12.9,
25.88184254,-80.1460441,00:49.5,10/21/21,10,1.146,41.64,-7.117706431,0.9,49.0,44.73,2.51,-2.7,36.5,0.01,3.4,3.41,92,25,510.0,16.2,-1.5,D,1368.2,0,230.003,1,0.95,154,43.24,-80.14446913,25.88334941,0,0,1,N,1.081385,77,77,11,149,149,50.6558,0,9999.99,3.43,3.557,2,9,29.3,0,29.29999924,45.42,1554.94472,10/21/21,10:37:02,26.68,66.84,45.42,1.376,7.91,-54.0,-5.1,19.3,5766,92.8,5.77,12.9,
25.88184731,-80.14603436,00:51.5,10/21/21,10,0.745,41.64,-7.117706431,0.9,50.7,46.42,-0.38,-3.45,36.4,0.01,3.44,3.45,92,25,510.0,16.2,-1.5,D,1368.2,0,228.95,1,0.94,154,43.15,-80.14446913,25.88334941,0,0,1,N,0.7392219,55,55,11,134,134,48.23669,0,9999.99,3.45,3.577,2,9,29.3,0,29.29999924,46.43,1556.00597,10/21/21,10:37:04,26.67,68.15,46.43,1.251,7.91,-53.8,-4.4,32.5,31127,92.7,5.72,12.9,
25.88185841,-80.14602514,00:54.5,10/21/21,10,0.86,41.64,-7.117706431,0.9,52.7,48.42,0.54,0.24,36.4,0.0,3.47,3.47,92,25,510.0,16.2,-1.5,D,1360.3,0,227.418,1,0.93,154,43.2,-80.14446913,25.88334941,0,0,1,N,0.9036242,60,60,11,131,131,49.40181,0,9999.99,3.48,3.607,2,9,29.3,0,29.29999924,46.41,1555.98464,10/21/21,10:37:07,26.7,68.11,46.41,1.192,7.91,-53.8,-3.0,-0.1,-1822,92.7,5.72,12.8,
25.88186605,-80.14601658,00:56.5,10/21/21,10,0.903,41.64,-7.117706431,0.9,55.3,51.0,0.55,-0.55,36.4,0.01,3.45,3.45,92,24,510.0,16.2,-1.5,D,1389.6,0,226.212,1,0.97,154,43.18,-80.14446913,25.88334941,0,0,1,N,0.859809,60,60,11,119,119,49.09178,0,9999.99,3.45,3.577,2,9,29.3,0,29.29999924,46.4,1555.97444,10/21/21,10:37:09,26.7,68.1,46.4,1.166,7.91,-53.8,-3.3,1.2,76037,92.4,5.7,12.9,
25.88186953,-80.14601507,00:57.5,10/21/21,10,0.792,41.64,-7.117706431,0.9,57.1,52.78,1.88,-1.29,36.4,0.01,3.34,3.35,92,24,510.0,16.2,-1.5,D,1389.6,0,225.827,1,1.01,154,43.22,-80.14446913,25.88334941,0,0,1,N,1.017082,68,68,11,117,117,50.20282,0,9999.99,3.36,3.487,2,9,29.3,0,29.29999924,46.4,1555.97431,10/21/21,10:37:10,26.69,68.1,46.4,1.19,7.91,-53.9,-3.5,-0.8,25965,92.4,5.7,12.9,
25.88187352,-80.14601206,00:58.5,10/21/21,10,1.143,41.64,-7.117706431,0.9,59.2,54.85,0.54,3.67,36.3,0.01,3.38,3.38,92,24,510.0,16.2,-1.5,D,1389.6,0,225.298,1,0.98,154,43.25,-80.14446913,25.88334941,0,0,1,N,1.098169,60,60,11,111,111,50.77369,0,9999.99,3.39,3.517,2,9,29.3,0,29.29999924,33.97,1542.932,10/21/21,10:37:11,26.7,51.73,33.97,1.216,7.91,-53.8,-3.9,-6.3,39026,92.4,6.12,12.9,
25.88187573,-80.14600632,00:59.5,10/21/21,10,1.133,41.64,-7.117706431,0.9,56.0,51.69,1.88,-2.68,36.3,0.0,3.35,3.35,92,24,509.9,16.2,-1.5,D,1400.5,0,224.726,1,1.0,154,43.18,-80.14446913,25.88334941,0,0,1,N,0.8444105,65,65,11,105,105,48.98269,0,9999.99,3.36,3.487,2,9,29.3,0,29.29999924,46.39,1555.96378,10/21/21,10:37:12,26.7,68.1,46.39,1.208,7.91,-53.8,-2.3,5.6,11527,92.5,5.71,12.8,
25.88188154,-80.145999,01:01.5,10/21/21,10,0.764,41.64,-7.117706431,0.9,55.4,51.1,0.27,1.48,36.3,0.0,3.38,3.39,92,24,509.9,16.2,-1.5,D,1400.5,0,223.753,1,0.96,154,43.16,-80.14446913,25.88334941,0,0,1,N,0.7465284,59,59,11,116,116,48.28846,0,9999.99,3.39,3.517,2,9,29.3,0,29.29999924,46.24,1555.80606,10/21/21,10:37:14,26.7,67.9,46.24,1.287,7.91,-53.8,-3.6,-3.7,28515,92.5,5.72,12.9,
25.88188422,-80.14599461,01:02.5,10/21/21,10,1.039,41.64,-7.117706431,0.9,53.1,48.81,1.76,-8.2,36.3,0.0,3.38,3.38,92,24,509.9,16.2,-1.5,D,1400.5,0,223.236,1,0.94,154,43.13,-80.14446913,25.88334941,0,0,1,N,0.6249354,72,72,11,125,125,47.42389,0,9999.99,3.4,3.527,2,9,29.3,0,29.29999924,46.38,1555.95323,10/21/21,10:37:15,26.71,68.07,46.38,1.196,7.91,-53.7,-3.6,-13.3,2112,92.5,5.71,12.9,
25.88189054,-80.14598908,01:04.5,10/21/21,10,0.933,41.64,-7.117706431,0.9,56.1,51.79,1.65,-0.42,36.3,0.0,3.41,3.41,92,24,509.9,16.2,-1.5,D,1393.1,0,222.345,1,0.92,154,43.15,-80.14446913,25.88334941,0,0,1,N,0.7064887,67,67,11,112,112,48.00393,0,9999.99,3.43,3.557,2,9,29.3,0,29.29999924,43.73,1553.16909,10/21/21,10:37:17,26.71,64.67,43.73,1.302,7.9,-53.6,-2.6,-3.0,962,92.4,5.79,12.9,
25.88190569,-80.1459745,01:09.6,10/21/21,10,0.747,41.64,-7.117706431,0.9,54.7,50.4,0.22,2.66,36.4,0.0,3.4,3.4,92,24,509.9,16.2,-1.5,D,1388.5,0,220.118,1,0.93,154,43.17,-80.14446913,25.88334941,0,0,1,N,0.784725,58,58,11,120,120,48.55937,0,9999.99,3.42,3.547,2,9,29.2,0,29.20000076,46.4,1555.77121,10/21/21,10:37:22,26.68,68.11,46.4,1.399,7.9,-53.6,-1.5,-4.0,-1780,92.5,5.71,13.0,
25.88191177,-80.14596655,01:11.6,10/21/21,10,1.014,41.64,-7.117706431,0.9,57.8,53.47,-0.34,-5.64,36.4,0.01,3.36,3.38,92,25,510.3,16.2,-1.5,D,1370.5,0,219.081,1,0.98,154,43.14,-80.14446913,25.88334941,0,0,1,N,0.6745925,53,53,11,90,90,47.77708,0,9999.99,3.38,3.507,2,9,29.2,0,29.20000076,38.48,1547.45124,10/21/21,10:37:24,26.69,57.78,38.48,1.156,7.9,-53.4,-4.3,-2.3,21705,92.4,5.97,12.8,
25.88191722,-80.14596393,01:12.6,10/21/21,10,0.953,41.64,-7.117706431,0.9,56.9,52.58,0.75,3.75,36.4,0.01,3.42,3.42,92,25,510.3,16.2,-1.5,D,1370.5,0,218.459,1,0.94,154,43.2,-80.14446913,25.88334941,0,0,1,N,0.8802181,66,66,11,120,120,49.23597,0,9999.99,3.44,3.567,2,9,29.2,0,29.20000076,45.29,1554.60464,10/21/21,10:37:25,26.7,66.68,45.29,1.354,7.9,-53.2,-4.0,6.1,14560,92.5,5.74,12.9,
25.88191826,-80.14595941,01:13.6,10/21/21,10,1.064,41.64,-7.117706431,0.9,59.4,55.05,2.6,-6.43,36.4,0.0,3.33,3.34,92,25,510.3,16.2,-1.5,D,1363.4,0,218.066,1,0.95,154,43.13,-80.14446913,25.88334941,0,0,1,N,0.6388834,73,73,11,97,97,47.52298,0,9999.99,3.34,3.467,2,9,29.2,0,29.20000076,31.86,1540.50874,10/21/21,10:37:26,26.7,48.86,31.86,1.146,7.9,-53.2,-2.6,-4.7,51859,92.5,6.2,13.0,
25.8819215,-80.14595099,01:15.6,10/21/21,10,1.185,41.64,-7.117706431,0.9,60.9,56.53,1.12,3.77,36.4,0.01,3.35,3.35,92,25,510.3,16.2,-1.5,D,1363.4,0,217.227,1,0.94,154,43.04,-80.14446913,25.88334941,0,0,1,N,0.2631518,64,64,11,80,80,44.84099,0,9999.99,3.36,3.483691,2,9,29.2,0,29.20000076,46.37,1555.74003,10/21/21,10:37:28,26.7,68.06,46.37,1.255,7.9,-53.1,-3.5,0.4,33430,92.4,5.71,12.7,
25.88192517,-80.14594245,01:17.6,10/21/21,10,0.898,41.64,-7.117706431,0.9,60.4,56.04,0.15,-1.97,36.4,0.0,3.42,3.42,92,24,510.2,16.2,-1.5,D,1396.6,0,216.346,1,0.92,154,42.94,-80.14446913,25.88334941,0,0,1,N,0.0789,58,58,11,72,72,42.39182,0,9999.99,3.43,3.557,2,9,29.2,0,29.20000076,46.25,1555.61368,10/21/21,10:37:30,26.71,67.91,46.25,1.128,7.89,-53.0,-3.9,2.1,67996,92.3,5.7,12.9,
25.88194973,-80.1459215,01:24.7,10/21/21,10,1.156,41.64,-7.117706431,0.9,49.6,45.33,2.47,1.69,36.3,0.0,3.38,3.39,92,25,510.2,16.2,-1.5,D,1371.2,0,212.92,1,0.95,154,43.03,-80.14446913,25.88334941,0,0,1,N,0.2344025,69,69,11,136,136,44.6351,0,9999.99,3.39,3.517,2,9,29.2,0,29.20000076,43.85,1553.09068,10/21/21,10:37:37,26.69,64.82,43.85,1.113,7.89,-53.0,-3.1,-4.0,12838,92.4,5.79,12.9,
25.88195337,-80.14591977,01:25.7,10/21/21,10,0.744,41.64,-7.117706431,0.9,50.3,46.02,-0.28,6.9,36.4,0.01,3.41,3.42,92,25,510.2,16.2,-1.5,D,1371.2,0,212.505,1,0.92,154,43.07,-80.14446913,25.88334941,0,0,1,N,0.3786595,55,55,11,126,126,45.66681,0,9999.99,3.42,3.547,2,9,29.2,0,29.20000076,45.88,1555.22488,10/21/21,10:37:39,26.7,67.43,45.88,1.174,7.89,-52.9,-2.5,-3.1,-1148,92.3,5.72,12.9,
25.88195715,-80.14591675,01:26.7,10/21/21,10,1.033,41.64,-7.117706431,0.9,45.9,41.62,0.65,-5.24,36.3,0.01,3.38,3.38,92,25,510.1,16.2,-1.5,D,1360.6,0,211.992,1,0.96,154,43.09,-80.14446913,25.88334941,0,0,1,N,0.4454323,61,61,11,145,145,46.14377,0,9999.99,3.39,3.517,2,9,29.2,0,29.20000076,45.88,1555.22488,10/21/21,10:37:39,26.7,67.43,45.88,1.174,7.89,-52.9,-2.5,-3.1,-1148,92.3,5.72,12.9,
25.88196317,-80.14591583,01:27.8,10/21/21,10,1.04,41.64,-7.117706431,0.9,48.9,44.63,1.62,1.78,36.3,0.0,3.44,3.44,92,25,510.1,16.2,-1.5,D,1360.6,0,211.463,1,0.92,154,43.18,-80.14446913,25.88334941,0,0,1,N,0.793811,67,67,11,143,143,48.62363,0,9999.99,3.44,3.567,2,9,29.2,0,29.20000076,46.35,1555.7188,10/21/21,10:37:41,26.7,68.04,46.35,1.228,7.89,-52.9,-3.0,0.6,-2495,92.3,5.7,12.9,
25.88197028,-80.14591063,01:29.8,10/21/21,10,0.839,41.64,-7.117706431,0.9,49.5,45.23,0.82,1.56,36.3,0.0,3.5,3.5,92,25,510.1,16.2,-1.5,D,1370.2,0,210.508,1,0.94,154,43.24,-80.14446913,25.88334941,0,0,1,N,0.9893035,64,64,11,161,161,50.00655,0,9999.99,3.5,3.627,2,9,29.2,0,29.20000076,46.35,1555.71878,10/21/21,10:37:43,26.69,68.04,46.35,1.157,7.89,-53.0,-2.8,-1.3,3627,92.3,5.7,12.9,
25.88197427,-80.14590613,01:30.8,10/21/21,10,1.112,41.64,-7.117706431,0.9,55.1,50.8,1.36,-2.92,36.3,0.0,3.44,3.44,92,25,510.1,16.2,-1.5,D,1370.2,0,209.877,1,0.96,154,43.23,-80.14446913,25.88334941,0,0,1,N,0.9753091,65,65,11,123,123,49.90781,0,9999.99,3.45,3.577,2,9,29.2,0,29.20000076,46.35,1555.71878,10/21/21,10:37:43,26.69,68.04,46.35,1.157,7.89,-53.0,-2.8,-1.3,3627,92.3,5.7,12.9,
25.88198333,-80.14588767,01:34.8,10/21/21,10,1.136,41.64,-7.117706431,0.9,55.5,51.2,1.33,-4.34,36.3,0.01,3.39,3.4,92,25,510.1,16.2,-1.5,D,1359.6,0,207.918,1,0.94,154,43.15,-80.14446913,25.88334941,0,0,1,N,0.6550388,65,65,11,113,113,47.63777,0,9999.99,3.41,3.537,2,9,29.2,0,29.20000076,46.29,1555.65592,10/21/21,10:37:48,26.71,67.96,46.29,1.144,7.89,-52.9,-4.7,-1.5,56408,92.3,5.7,12.9,
25.88198633,-80.145885,01:35.8,10/21/21,10,0.807,41.64,-7.117706431,0.9,51.6,47.32,0.6,-7.5,36.3,0.01,3.44,3.44,92,25,510.1,16.2,-1.5,D,1359.6,0,207.373,1,0.98,154,43.05,-80.14446913,25.88334941,0,0,1,N,0.2904721,61,61,11,118,118,45.03621,0,9999.99,3.45,3.577,2,9,29.2,0,29.20000076,46.29,1555.65592,10/21/21,10:37:48,26.71,67.96,46.29,1.144,7.89,-52.9,-4.7,-1.5,56408,92.3,5.7,12.9,
25.8819915,-80.14588283,01:36.8,10/21/21,10,1.08,41.64,-7.117706431,0.9,59.2,54.85,1.29,2.8,36.3,0.0,3.46,3.46,92,24,510.0,16.2,-1.5,D,1414.9,0,206.969,1,0.91,154,43.07,-80.14446913,25.88334941,0,0,1,N,0.363808,65,65,11,105,105,45.56053,0,9999.99,3.46,3.587,2,9,29.2,0,29.20000076,44.98,1554.27828,10/21/21,10:37:49,26.71,66.28,44.98,1.168,7.89,-52.9,-3.1,3.6,31822,92.4,5.75,12.8,
25.88200119,-80.14586711,01:39.8,10/21/21,11,1.46,41.64,-7.117706431,0.9,68.1,63.57,-2.66,-1.17,36.3,0.0,3.47,3.47,92,24,510.0,16.2,-1.5,D,1414.9,0,205.024,1,1.15,153,43.01,-80.14446913,25.88334941,0,0,1,N,0.1878076,43,43,11,50,50,44.30153,0,9999.99,3.43,3.557,2,9,29.1,0,29.10000038,46.32,1555.48359,10/21/21,10:37:53,26.71,68.0,46.32,1.17,7.89,-52.8,-2.9,-7.5,18333,92.5,5.71,12.9,
25.88200367,-80.14586483,01:40.8,10/21/21,11,0.609,41.64,-7.117706431,0.9,67.7,63.18,-1.2,2.18,36.3,0.0,3.45,3.45,92,23,510.0,16.2,-1.4,D,1489.2,0,204.512,1,1.11,153,42.97,-80.14446913,25.88334941,0,0,1,N,0.0216,50,50,11,52,52,43.11155,0,9999.99,3.45,3.577,2,9,29.2,0,29.10000038,46.32,1555.48359,10/21/21,10:37:53,26.71,68.0,46.32,1.17,7.89,-52.8,-2.9,-7.5,18333,92.5,5.71,12.9,
25.88207667,-80.14581283,02:09.8,10/21/21,11,0.883,64.81,-7.117706431,0.9,211.4,201.92,-1.93,-5.6,36.1,0.03,3.65,3.67,92,22,509.7,16.2,-1.4,D,1513.2,0,195.987,1,1.0,160,43.5,-80.14446913,25.88334941,0,0,1,N,1.849014,45,45,11,5,5,55.97141,0,9999.99,999.99,999.99,0,0,29.3,0,29.29999924,2.73,1510.33313,10/21/21,10:38:23,26.03,5.094,2.73,0.985,7.86,-51.0,-7.6,-9.5,43390,99.9,7.98,12.7,
25.88207867,-80.14581117,02:10.8,10/21/21,11,0.947,64.81,-7.117706431,0.9,212.7,203.28,-3.17,-1.32,36.1,0.04,3.65,3.68,92,22,509.7,16.2,-1.4,D,1513.2,0,195.663,1,1.0,160,43.47,-80.14446913,25.88334941,0,0,1,N,1.744523,43,43,11,5,5,55.25887,0,9999.99,999.99,999.99,0,0,29.3,0,29.29999924,2.73,1510.33313,10/21/21,10:38:23,26.03,5.094,2.73,0.985,7.86,-51.0,-7.6,-9.5,43390,99.9,7.98,12.7,
25.88207867,-80.145806,02:11.8,10/21/21,11,0.94,64.81,-7.117706431,0.9,218.0,208.84,0.24,1.28,36.1,0.04,3.65,3.68,92,22,509.7,16.2,-1.4,D,1513.2,0,195.442,1,1.0,160,43.49,-80.14446913,25.88334941,0,0,1,N,1.779812,58,58,11,5,5,55.49996,0,9999.99,999.99,999.99,0,0,29.3,0,29.29999924,2.63,1510.22993,10/21/21,10:38:25,26.11,4.927,2.63,0.992,7.86,-50.9,-8.8,-3.6,25487,100.0,7.98,12.6,
25.88207469,-80.14580863,02:12.8,10/21/21,11,0.94,64.81,-7.117706431,0.9,224.1,215.26,-0.59,0.07,36.1,0.04,3.65,3.68,92,23,509.7,16.2,-1.4,D,1494.0,0,195.061,1,1.0,160,43.39,-80.14446913,25.88334941,0,0,1,N,1.453481,53,53,11,5,5,53.25446,0,9999.99,999.99,999.99,0,0,29.3,0,29.29999924,2.63,1510.22993,10/21/21,10:38:25,26.11,4.927,2.63,0.992,7.86,-50.9,-8.8,-3.6,25487,100.0,7.98,12.6,
25.88207452,-80.14580392,02:13.8,10/21/21,10,1.346,64.81,-7.117706431,1.0,227.3,218.63,-0.55,0.37,36.1,0.03,3.65,3.67,92,23,509.7,16.2,-1.4,D,1494.0,0,194.751,1,1.0,160,43.29,-80.14446913,25.88334941,0,0,1,N,1.091563,54,54,11,5,5,50.72661,0,9999.99,999.99,999.99,0,0,29.3,0,29.29999924,2.63,1510.22935,10/21/21,10:38:26,26.14,4.913,2.63,0.989,7.86,-50.9,-8.7,-3.5,30902,99.9,7.96,12.7,
